City_ID,City,Lat,Lng,Max Temp,Humidity,Cloudiness,Wind Speed,Country,Date
0,mana,5.6592,-53.7767,78.31,82,33,10.83,GF,1707706487
1,barrouallie,13.2333,-61.2667,76.78,74,3,10.4,VC,1707706487
2,blackmans bay,-43.0167,147.3167,74.52,62,55,3.0,AU,1707706487
3,stanley,54.868,-1.6985,37.27,93,20,6.91,GB,1707706487
4,mahina,-17.5065,-149.489,80.37,89,75,13.8,PF,1707706487
5,aasiaat,68.7098,-52.8699,-18.36,99,96,6.8,GL,1707706487
6,port-aux-francais,-49.35,70.2167,42.89,72,7,21.63,TF,1707706487
7,colonia,50.9333,6.95,48.06,86,75,9.22,DE,1707706202
8,nuuk,64.1835,-51.7216,7.41,66,39,13.8,GL,1707706440
9,minas de marcona,-15.2119,-75.1103,67.75,80,99,10.78,PE,1707706488
10,hawaiian paradise park,19.5933,-154.9731,78.31,79,75,14.97,US,1707706242
11,adamstown,-25.066,-130.1015,76.06,92,59,21.07,PN,1707706488
12,constantia,44.1833,28.65,54.7,65,100,21.99,RO,1707706446
13,udachny,66.4167,112.4,-23.06,96,100,6.91,RU,1707706488
14,puerto natales,-51.7236,-72.4875,43.0,80,95,12.06,CL,1707706488
15,waitangi,-43.9535,-176.5597,61.83,70,90,4.0,NZ,1707706488
16,carnarvon,-24.8667,113.6333,91.33,44,0,10.56,AU,1707706398
17,bethel,41.3712,-73.414,42.94,72,0,1.99,US,1707706488
18,grytviken,-54.2811,-36.5092,40.71,74,1,7.56,GS,1707706489
19,albany,42.6001,-73.9662,36.01,75,100,4.0,US,1707706489
20,saint-philippe,-21.3585,55.7679,76.59,89,39,9.71,RE,1707706489
21,kuanda,56.3161,116.0806,12.0,90,100,4.34,RU,1707706489
22,beyneu,45.3167,55.2,37.74,79,100,15.43,KZ,1707706489
23,thompson,55.7435,-97.8558,12.36,85,100,0.0,CA,1707706235
24,ishigaki,24.3448,124.1572,66.33,48,75,12.66,JP,1707706489
25,tiksi,71.6872,128.8694,-30.3,100,100,1.52,RU,1707706489
26,felipe carrillo puerto,19.5833,-88.05,74.66,91,2,5.95,MX,1707706489
27,fortuna,40.5982,-124.1573,52.66,93,75,0.0,US,1707706490
28,pacific grove,36.6177,-121.9166,55.02,85,20,4.61,US,1707706490
29,badger,64.8,-147.5333,21.45,81,0,0.0,US,1707706490
30,utrik,11.2278,169.8474,79.12,80,100,23.17,MH,1707706490
31,margaret river,-33.95,115.0667,74.79,51,0,15.99,AU,1707706490
32,whitehorse,60.7161,-135.0538,29.17,43,75,4.61,CA,1707706490
33,invercargill,-46.4,168.35,63.01,70,87,13.0,NZ,1707706490
34,kruisfontein,-34.0033,24.7314,59.88,90,42,4.92,ZA,1707706490
35,ushuaia,-54.8,-68.3,42.46,81,75,26.46,AR,1707706491
36,waingapu,-9.6567,120.2641,87.58,66,70,12.1,ID,1707706491
37,santa ana,33.7456,-117.8678,59.04,62,0,3.44,US,1707706473
38,xiahu,26.6106,119.9483,53.73,65,0,4.88,CN,1707706491
39,puerto deseado,-47.7503,-65.8938,54.12,53,81,31.14,AR,1707706491
40,bilibino,68.0546,166.4372,-33.11,97,53,1.9,RU,1707706491
41,fale old settlement,-9.3852,-171.2468,83.64,78,100,17.11,TK,1707706491
42,bredasdorp,-34.5322,20.0403,63.57,94,2,5.64,ZA,1707706492
43,tabou,4.423,-7.3528,77.97,95,35,3.51,CI,1707706492
44,isafjordur,66.0755,-23.124,32.47,88,100,29.37,IS,1707706492
45,barranca,-10.75,-77.7667,76.73,77,100,7.11,PE,1707706492
46,harper,4.375,-7.7169,80.15,88,39,6.93,LR,1707706493
47,kirensk,57.7853,108.1119,6.96,94,100,7.0,RU,1707706493
48,puerto leguizamo,-0.1934,-74.7819,74.53,97,99,2.1,CO,1707706493
49,smithers,54.7804,-127.1743,23.32,100,100,0.0,CA,1707706493
50,lazaro cardenas,17.9583,-102.2,73.18,80,2,4.9,MX,1707706493
51,hermanus,-34.4187,19.2345,67.8,74,0,10.92,ZA,1707706458
52,svetlogorsk,52.6333,29.7333,35.22,99,100,7.25,BY,1707706493
53,santa ana de yacuma,-13.75,-65.4333,77.32,90,100,5.19,BO,1707706493
54,timmins,48.4669,-81.3331,21.02,86,100,3.44,CA,1707706202
55,yellowknife,62.456,-114.3525,5.56,92,20,10.36,CA,1707706494
56,dalbandin,28.8947,64.4101,61.5,34,100,1.34,PK,1707706494
57,kununurra,-15.7667,128.7333,87.78,70,75,8.05,AU,1707706390
58,oranjemund,-28.55,16.4333,65.57,90,0,2.04,NA,1707706494
59,westport,41.1415,-73.3579,44.58,64,20,4.61,US,1707706494
60,rio verde de mato grosso,-18.9181,-54.8442,74.95,89,100,6.96,BR,1707706338
61,longyearbyen,78.2186,15.6401,15.64,73,40,9.22,SJ,1707706494
62,ancud,-41.8697,-73.8203,54.37,69,9,12.57,CL,1707706495
63,cabo san lucas,22.8909,-109.9124,64.62,73,3,2.39,MX,1707706495
64,port mathurin,-19.6833,63.4167,81.48,85,94,18.19,MU,1707706495
65,palmer,42.1584,-72.3287,37.81,79,20,8.05,US,1707706495
66,vadso,70.0744,29.7487,21.36,79,100,3.44,NO,1707706495
67,iqaluit,63.7506,-68.5145,-16.31,68,20,5.75,CA,1707706495
68,saint-joseph,-21.3667,55.6167,75.58,85,22,10.16,RE,1707706495
69,avarua,-21.2078,-159.775,84.25,61,40,12.66,CK,1707706496
70,dudinka,69.4058,86.1778,-35.32,99,23,4.0,RU,1707706496
71,chonchi,-42.6128,-73.8092,51.12,93,3,2.77,CL,1707706496
72,namdrik,5.5994,168.1028,81.07,83,60,21.18,MH,1707706496
73,fort mcmurray,56.7268,-111.381,31.59,64,0,8.05,CA,1707706496
74,gallup,35.5281,-108.7426,30.04,69,0,5.75,US,1707706496
75,acapulco de juarez,16.8634,-99.8901,76.1,81,21,5.75,MX,1707706258
76,pangai,-19.8,-174.35,86.11,84,75,9.22,TO,1707706496
77,selfoss,63.9331,-20.9971,26.85,84,100,12.75,IS,1707706496
78,hasaki,35.7333,140.8333,48.6,52,100,22.1,JP,1707706497
79,verdal,63.7933,11.4817,30.24,68,100,10.8,NO,1707706497
80,porto novo,6.4965,2.6036,84.02,91,24,5.08,BJ,1707706497
81,ponta delgada,37.7333,-25.6667,65.19,88,40,13.8,PT,1707706497
82,la ronge,55.1001,-105.2842,34.05,60,75,12.66,CA,1707706497
83,kodiak,57.79,-152.4072,35.11,80,100,12.66,US,1707706497
84,bryne,58.7354,5.6477,39.97,80,100,14.97,NO,1707706497
85,talnakh,69.4865,88.3972,-29.16,88,16,3.42,RU,1707706497
86,olonkinbyen,70.9221,-8.7187,27.82,63,100,12.44,SJ,1707706498
87,mount isa,-20.7333,139.5,94.77,38,48,9.22,AU,1707706498
88,ribeira grande,38.5167,-28.7,62.78,87,13,24.0,PT,1707706498
89,kegen,43.0197,79.2203,17.87,81,100,4.18,KZ,1707706498
90,puerto ayora,-0.7393,-90.3518,80.55,94,56,3.0,EC,1707706498
91,severo-yeniseyskiy,60.3725,93.0408,-0.42,95,100,10.0,RU,1707706498
92,san miguel el alto,21.0167,-102.35,60.64,25,98,5.14,MX,1707706498
93,luderitz,-26.6481,15.1594,64.29,87,1,4.25,NA,1707706498
94,crane,31.3974,-102.3501,40.62,62,100,18.75,US,1707706498
95,papatowai,-46.5619,169.4708,62.64,58,88,13.04,NZ,1707706499
96,'alaqahdari dishu,30.4374,63.313,59.43,42,100,8.97,AF,1707706499
97,keflavik,64.0049,-22.5624,30.63,80,0,12.66,IS,1707706499
98,georgetown,5.4112,100.3354,88.95,57,20,16.11,MY,1707706499
99,tejen,37.3834,60.5054,51.26,40,13,7.74,TM,1707706499
100,garachico,28.7781,-17.7646,64.51,68,100,6.91,ES,1707706499
101,la rinconada,37.4873,-5.9826,63.93,93,100,13.8,ES,1707706500
102,freetown,8.484,-13.2299,80.31,83,28,9.22,SL,1707706500
103,kralendijk,12.15,-68.2667,80.58,78,20,14.97,BQ,1707706500
104,mazatlan,23.2167,-106.4167,67.91,65,0,5.01,MX,1707706500
105,port lincoln,-34.7333,135.8667,95.0,22,0,3.02,AU,1707706500
106,brisas de zicatela,15.8369,-97.0419,77.68,78,9,8.16,MX,1707706500
107,new plymouth,-39.0667,174.0833,67.32,52,6,13.85,NZ,1707706500
108,labrador city,52.9463,-66.9114,15.71,85,100,4.61,CA,1707706500
109,san antonio de pale,-1.4014,5.6325,82.74,80,26,4.94,GQ,1707706501
110,fort st. john,56.2499,-120.8529,30.09,59,75,3.44,CA,1707706501
111,edinburgh of the seven seas,-37.0676,-12.3116,63.12,74,43,19.01,SH,1707706501
112,qaqortoq,60.7167,-46.0333,4.89,74,95,5.01,GL,1707706501
113,dededo village,13.5178,144.8391,85.82,61,40,18.41,GU,1707706501
114,iskateley,67.6803,53.1512,-27.98,100,19,4.0,RU,1707706502
115,wailea,19.8858,-155.123,78.03,83,75,14.97,US,1707706502
116,kingston,17.997,-76.7936,79.75,74,20,18.41,JM,1707706460
117,sarangani,5.4033,125.4636,81.21,75,10,24.65,PH,1707706502
118,totskoye,52.5248,52.7623,-13.11,98,16,4.27,RU,1707706502
119,funafuti,-8.5243,179.1942,80.6,94,100,13.8,TV,1707706503
120,dohar,23.5883,90.1469,66.18,40,6,5.28,BD,1707706503
121,hilo,19.7297,-155.09,78.53,80,75,14.97,US,1707706503
122,lebu,-37.6167,-73.65,57.45,89,0,15.57,CL,1707706504
123,petropavlovsk-kamchatsky,53.0452,158.6483,12.79,72,0,11.01,RU,1707706504
124,sorong,-0.8833,131.25,84.65,72,100,15.01,ID,1707706504
125,walvis bay,-22.9575,14.5053,65.35,77,62,0.0,NA,1707706504
126,newport,51.5877,-2.9984,42.55,93,84,7.36,GB,1707706505
127,tauste,41.918,-1.2534,44.46,77,88,2.21,ES,1707706505
128,saldanha,-33.0117,17.9442,66.25,88,0,7.16,ZA,1707706505
129,suva,-18.1416,178.4415,90.88,66,75,9.22,FJ,1707706505
130,punta arenas,-53.15,-70.9167,44.71,70,0,14.97,CL,1707706506
131,hailar,49.2,119.7,21.99,86,77,15.41,CN,1707706506
132,mount gambier,-37.8333,140.7667,91.51,16,0,7.56,AU,1707706506
133,mejit,10.2753,170.8646,79.63,74,43,22.46,MH,1707706506
134,forster,-32.1667,152.5167,81.28,73,78,9.86,AU,1707706507
135,boende,-0.2167,20.8667,76.64,63,83,3.0,CD,1707706507
136,bacalar,18.6667,-88.3833,73.69,94,3,4.5,MX,1707706507
137,port saint john's,-31.6229,29.5448,67.46,89,21,11.25,ZA,1707706507
138,sarandi grande,-33.7333,-56.3333,80.08,64,40,9.24,UY,1707706508
139,mata-utu,-13.2816,-176.1745,82.54,85,97,20.62,WF,1707706508
140,illizi,26.4833,8.4667,58.8,36,4,4.05,DZ,1707706508
141,streator,41.1209,-88.8354,32.58,86,43,4.52,US,1707706509
142,susuman,62.7833,148.1667,-27.02,99,89,1.01,RU,1707706509
143,amga,60.8953,131.9608,-10.35,92,92,3.0,RU,1707706509
144,bilopillya,51.1502,34.3129,35.49,100,100,7.38,UA,1707706509
145,haiku-pauwela,20.9219,-156.3051,78.17,70,40,11.5,US,1707706510
146,awjilah,29.1081,21.2869,65.62,17,100,1.95,LY,1707706510
147,arkhangel'sk,64.5401,40.5433,-10.88,75,75,4.47,RU,1707706510
148,tolanaro,-25.0319,46.9987,80.67,83,40,13.8,MG,1707706510
149,ashtabula,41.7001,-80.7665,31.66,86,100,2.1,US,1707706510
150,tura,25.5198,90.2201,73.2,30,1,0.98,IN,1707706511
151,tazovsky,67.4667,78.7,-26.52,99,98,3.96,RU,1707706511
152,polyarnyy,69.1989,33.4478,-4.49,100,100,6.08,RU,1707706511
153,novyy urgal,51.0736,132.5642,16.83,82,100,4.47,RU,1707706511
154,carbonear,47.7332,-53.2148,36.12,95,100,8.01,CA,1707706511
155,luganville,-15.5333,167.1667,85.06,70,40,7.99,VU,1707706511
156,santa cruz del norte,23.1539,-81.9236,75.47,73,22,9.57,CU,1707706512
157,porto seguro,-16.4497,-39.0647,77.52,94,75,3.44,BR,1707706512
158,afaahiti,-17.75,-149.2833,78.67,90,100,10.89,PF,1707706512
159,montepuez,-13.1256,38.9997,69.98,100,100,0.51,MZ,1707706512
160,morehead city,34.7229,-76.726,62.62,89,100,8.05,US,1707706512
161,hinton,53.4001,-117.5857,29.21,98,100,1.86,CA,1707706513
162,north bondi,-33.8824,151.2769,90.91,58,20,17.27,AU,1707706513
163,holualoa,19.6228,-155.9522,75.04,77,75,6.91,US,1707706513
164,saint-denis,48.9167,2.3333,43.14,93,0,8.05,FR,1707706513
165,ilulissat,69.2167,-51.1,-2.18,65,75,12.66,GL,1707706513
166,kayangel,8.0823,134.7173,81.57,83,98,21.21,PW,1707706513
167,le port,-20.9373,55.2919,80.56,79,7,4.12,RE,1707706514
168,vilyuysk,63.7553,121.6247,-17.0,96,100,11.01,RU,1707706514
169,phan thiet,10.9333,108.1,86.79,36,6,8.25,VN,1707706514
170,ad darbasiyah,37.0728,40.652,43.2,81,0,5.75,SY,1707706514
171,alaghsas,17.0187,8.0168,67.35,11,0,8.39,NE,1707706514
172,rabo de peixe,37.8,-25.5833,63.99,99,40,13.8,PT,1707706514
173,port elizabeth,-33.918,25.5701,66.49,91,0,10.36,ZA,1707706514
174,college,64.8569,-147.8028,21.52,75,75,0.0,US,1707706515
175,klaksvik,62.2266,-6.589,41.92,97,100,28.1,FO,1707706515
176,bakal,54.9417,58.8083,-5.44,99,98,3.94,RU,1707706515
177,lautoka,-17.6167,177.4667,84.06,84,75,17.27,FJ,1707706515
178,hamilton,39.1834,-84.5333,40.89,74,0,9.22,US,1707706486
179,vodnyy,63.5046,53.4095,-12.59,100,98,3.51,RU,1707706516
180,enewetak,11.3474,162.3373,79.84,76,100,21.43,MH,1707706516
181,dzuunmod,48.2199,97.3744,26.28,68,83,30.8,MN,1707706516
182,gaigeturi,33.4644,126.3183,51.85,40,0,3.44,KR,1707706516
183,kiruna,67.8557,20.2251,5.92,85,40,4.61,SE,1707706517
184,gulu,2.7746,32.299,71.89,66,91,5.21,UG,1707706517
185,bamboo flat,11.7,92.7167,84.29,79,20,9.22,IN,1707706517
186,whangarei,-35.7317,174.3239,75.13,48,31,7.9,NZ,1707706517
187,ridgecrest,35.6225,-117.6709,45.43,55,6,1.01,US,1707706378
188,lompoc,34.6391,-120.4579,54.79,81,0,7.0,US,1707706517
189,klyuchi,52.2667,79.1667,4.21,85,100,16.42,RU,1707706517
190,jamestown,42.097,-79.2353,33.39,88,100,3.0,US,1707706370
191,puerto aysen,-45.4,-72.7,44.55,90,61,5.48,CL,1707706518
192,severinia,-20.8094,-48.8028,72.28,77,5,11.01,BR,1707706518
193,hithadhoo,-0.6,73.0833,80.74,77,69,4.05,MV,1707706519
194,tazacorte,28.629,-17.9293,67.17,83,100,6.91,ES,1707706519
195,vallenar,-28.5708,-70.7581,72.59,55,0,2.77,CL,1707706519
196,santiago de cao,-7.9589,-79.2392,75.33,83,100,9.22,PE,1707706519
197,kota tinggi,1.7381,103.8999,85.19,68,59,11.48,MY,1707706519
198,beinamar,8.6698,15.3813,75.15,20,1,3.09,TD,1707706520
199,bowral,-34.4667,150.4167,82.06,36,0,4.59,AU,1707706520
200,montes claros,-16.735,-43.8617,69.58,94,0,1.14,BR,1707706520
201,sao pedro do sul,-29.6206,-54.1789,74.05,83,76,4.97,BR,1707706520
202,muncie,40.1934,-85.3864,33.73,78,0,0.0,US,1707706520
203,jinka,5.65,36.65,70.0,62,94,2.21,ET,1707706521
204,mantua,45.1667,10.7833,48.97,97,95,1.01,IT,1707706521
205,sikandra rao,27.7,78.4,56.03,55,20,3.11,IN,1707706521
206,port macquarie,-31.4333,152.9167,80.89,68,43,11.77,AU,1707706522
207,bridlington,54.0831,-0.1919,41.02,91,3,1.99,GB,1707706522
208,anadyr,64.75,177.4833,-12.5,75,99,15.66,RU,1707706522
209,west island,-12.1568,96.8225,85.98,74,100,10.36,CC,1707706522
210,sabang,5.8933,95.3214,82.54,75,5,25.97,ID,1707706523
211,nuku'alofa,-21.1333,-175.2,82.74,94,100,13.8,TO,1707706494
212,bandipura,34.4167,74.65,32.11,47,71,7.18,IN,1707706523
213,puerto baquerizo moreno,-0.9,-89.6,79.03,88,39,9.69,EC,1707706337
214,ta`u,-14.2336,-169.5144,81.66,85,100,19.77,AS,1707706523
215,erenhot,43.6475,111.9767,25.74,75,3,14.97,CN,1707706523
216,praia,14.9215,-23.5087,72.14,78,20,11.5,CV,1707706524
217,geraldton,-28.7667,114.6,79.21,65,0,16.11,AU,1707706456
218,trincomalee,8.5711,81.2335,81.12,70,45,15.66,LK,1707706524
219,tromso,69.6496,18.957,21.22,93,75,2.3,NO,1707706524
220,yinchuan,38.4681,106.2731,39.2,25,0,6.29,CN,1707706524
221,katsuura,35.1333,140.3,46.65,63,71,18.63,JP,1707706525
222,entebbe,0.0644,32.4469,71.76,79,96,7.36,UG,1707706525
223,yulinshi,38.2906,109.7494,40.37,23,0,7.09,CN,1707706525
224,vila velha,-20.3297,-40.2925,76.95,93,40,5.75,BR,1707706525
225,ugoofaaru,5.6667,73.0,82.35,75,29,14.5,MV,1707706525
226,kuta,-8.7233,115.1723,87.75,74,40,14.0,ID,1707706525
227,pisco,-13.7,-76.2167,75.25,78,0,8.05,PE,1707706526
228,kapuskasing,49.4169,-82.4331,17.69,92,100,1.14,CA,1707706526
229,weno,7.4515,151.8468,85.95,70,40,12.66,FM,1707706526
230,mumbai,19.0144,72.8479,75.18,53,20,0.0,IN,1707706526
231,lihue,21.9789,-159.3672,78.39,68,75,8.05,US,1707706526
232,whakatane,-37.9585,176.9854,77.88,59,32,4.0,NZ,1707706526
233,kerema,-7.9631,145.7785,91.33,62,31,3.44,PG,1707706527
234,elizabeth city,36.2946,-76.2511,59.02,95,100,5.75,US,1707706270
235,coahuayana de hidalgo,18.7,-103.6583,69.66,91,24,1.5,MX,1707706527
236,aykhal,66.0,111.5,-25.22,98,100,9.24,RU,1707706527
237,mandalgovi,45.7625,106.2708,19.33,75,0,12.3,MN,1707706527
238,dali,25.7,100.1833,55.74,50,45,3.56,CN,1707706528
239,qorveh,35.1664,47.8045,34.11,67,0,1.32,IR,1707706528
240,lerwick,60.1545,-1.1494,41.0,97,100,24.25,GB,1707706528
241,christiana,-27.914,25.1611,64.53,82,0,11.52,ZA,1707706528
242,sitka,57.0531,-135.33,37.29,87,100,10.36,US,1707706528
243,lusambo,-4.9667,23.45,69.31,86,62,1.66,CD,1707706528
244,bodo,67.28,14.405,23.04,58,0,26.46,NO,1707706529
245,maceio,-9.6658,-35.7353,80.04,94,20,1.14,BR,1707706529
246,vernon,50.2581,-119.2691,37.29,92,100,2.3,CA,1707706529
247,okhotsk,59.3833,143.3,-10.21,90,57,5.19,RU,1707706529
248,la passe,45.5549,-0.8967,45.99,88,100,12.17,FR,1707706529
249,st. john's,47.5649,-52.7093,34.99,92,100,6.91,CA,1707706529
250,gorontalo,0.5412,123.0595,80.13,90,95,2.77,ID,1707706530
251,codrington,-38.2667,141.9667,77.59,49,0,12.33,AU,1707706530
252,brookings,44.3114,-96.7984,35.19,77,0,9.22,US,1707706530
253,bahia de caraquez,-0.6,-80.4167,78.98,88,78,3.47,EC,1707706530
254,guerrero negro,27.9769,-114.0611,62.01,46,0,4.16,MX,1707706530
255,neryungri,56.6709,124.6491,4.5,93,100,0.72,RU,1707706530
256,san julian,21.0167,-102.1667,58.66,26,95,5.93,MX,1707706531
257,yarmouth,41.7057,-70.2286,40.12,80,0,5.01,US,1707706531
258,ribeira brava,32.65,-17.0667,69.01,88,68,3.15,PT,1707706531
259,murun-kuren,49.6342,100.1625,30.16,88,100,15.46,MN,1707706531
260,letterkenny,54.95,-7.7333,39.92,77,75,9.93,IE,1707706531
261,wingham,43.8879,-81.3114,33.28,85,100,4.41,CA,1707706531
262,panaba,21.2833,-88.2667,76.55,80,0,12.57,MX,1707706532
263,port alfred,-33.5906,26.891,66.18,86,100,1.99,ZA,1707706532
264,new norfolk,-42.7826,147.0587,75.7,19,92,5.32,AU,1707706532
265,sisimiut,66.9395,-53.6735,-6.63,92,43,4.45,GL,1707706532
266,san patricio,28.017,-97.5169,66.15,66,0,7.09,US,1707706532
267,taroa,8.7058,171.2275,80.4,75,100,25.1,MH,1707706532
268,tavda,58.0425,65.2726,-12.3,99,15,5.01,RU,1707706532
269,chu,43.5983,73.7614,28.87,97,100,7.34,KZ,1707706532
270,mount pearl,47.5166,-52.7813,34.14,93,100,6.91,CA,1707706419
271,plainview,40.7765,-73.4673,44.74,70,75,5.01,US,1707706533
272,mahalapye,-23.1041,26.8142,64.29,78,1,11.61,BW,1707706533
273,richmond,37.5538,-77.4603,53.92,95,100,5.75,US,1707706365
274,kone,-21.0595,164.8658,85.24,71,62,8.01,NC,1707706533
275,medak,18.0333,78.2667,73.96,53,56,12.44,IN,1707706533
276,markala,13.7021,-6.0659,75.25,10,0,9.55,ML,1707706534
277,atafu village,-8.5421,-172.5159,82.67,82,100,17.69,TK,1707706534
278,peace river,56.2501,-117.286,25.11,74,20,8.05,CA,1707706534
279,noginsk-9,56.0668,38.5001,20.95,97,100,6.33,RU,1707706534
280,faya-largeau,17.9257,19.1043,69.39,14,3,10.18,TD,1707706534
281,yung shue wan,22.2333,114.1167,69.33,46,4,3.0,HK,1707706534
282,bloemfontein,-29.1211,26.214,65.68,88,17,4.61,ZA,1707706534
283,vengerovo,55.6848,76.7471,-10.73,94,77,11.27,RU,1707706535
284,monywa,22.1167,95.1333,74.12,40,100,6.33,MM,1707706535
285,rio grande,-32.035,-52.0986,74.95,95,2,6.6,BR,1707706535
286,podporozh'ye,60.9112,34.1706,6.21,95,98,6.02,RU,1707706535
287,alofi,-19.0595,-169.9187,85.89,79,100,9.22,NU,1707706535
288,lycksele,64.5954,18.6735,-20.33,76,100,3.44,SE,1707706397
289,carloforte,39.145,8.3058,57.18,66,2,21.72,IT,1707706536
290,bahia honda,22.9036,-83.1592,74.53,76,49,12.28,CU,1707706536
291,alice springs,-23.7,133.8833,81.95,65,100,16.11,AU,1707706536
292,arinos,-15.9169,-46.1056,68.27,96,51,1.07,BR,1707706536
293,carutapera,-1.195,-46.02,76.39,94,71,5.57,BR,1707706536
294,gadzhiyevo,69.2551,33.3362,-7.08,100,99,6.17,RU,1707706536
295,pierre,44.3683,-100.351,40.12,60,75,11.5,US,1707706423
296,viedma,-40.8135,-62.9967,79.83,33,100,16.28,AR,1707706537
297,xiangtan,27.85,112.9,50.32,61,74,7.43,CN,1707706537
298,belyy yar,53.6039,91.3903,12.09,62,0,8.95,RU,1707706537
299,ardestan,33.3761,52.3694,44.74,33,0,2.46,IR,1707706537
300,antalaha,-14.9003,50.2788,76.1,91,100,4.83,MG,1707706537
301,northam,51.0333,-4.2167,44.65,88,45,10.45,GB,1707706538
302,pontianak,-0.0333,109.3333,80.58,88,40,5.75,ID,1707706538
303,zhangye,38.9342,100.4517,40.41,16,17,1.5,CN,1707706538
304,fort-shevchenko,44.5086,50.263,36.73,91,90,6.44,KZ,1707706538
305,cedeira,43.6797,-8.0209,56.82,92,77,28.81,ES,1707706538
306,qarazhal,48.0078,70.7903,-7.37,96,5,3.67,KZ,1707706538
307,shubarshi,48.5872,57.1869,3.63,86,21,9.28,KZ,1707706538
308,kolonia,50.9333,6.95,47.97,86,75,9.22,DE,1707706538
309,wailua homesteads,22.0669,-159.378,77.79,70,75,8.05,US,1707706539
310,iquique,-20.2208,-70.1431,75.24,81,100,1.34,CL,1707706438
311,ortona,42.3496,14.4039,51.39,82,27,5.35,IT,1707706539
312,dwarka,22.2394,68.9678,69.98,39,100,10.2,IN,1707706539
313,dzilam gonzalez,21.2833,-88.9333,77.52,80,0,21.0,MX,1707706539
314,tamanrasset,22.785,5.5228,53.51,9,0,6.91,DZ,1707706540
315,kuching,1.55,110.3333,83.01,88,40,6.91,MY,1707706540
316,kaspiyskiy,45.3929,47.3707,36.54,86,100,7.83,RU,1707706540
317,posse,-14.0931,-46.3694,64.71,95,100,2.59,BR,1707706540
318,badvel,14.75,79.05,73.22,77,85,5.08,IN,1707706540
319,reggane,26.7158,0.1714,69.08,36,0,6.64,DZ,1707706540
320,sinop,41.7711,34.8709,48.02,64,100,8.52,TR,1707706541
321,ubinskoye,55.3068,79.6802,-2.25,93,100,12.28,RU,1707706541
322,san-pedro,4.7485,-6.6363,79.25,92,43,5.46,CI,1707706541
323,richards bay,-28.783,32.0377,70.88,73,100,3.6,ZA,1707706541
324,minot,48.2325,-101.2963,30.42,74,0,10.36,US,1707706384
325,santa maria da vitoria,-13.3947,-44.1886,69.71,85,100,1.63,BR,1707706342
326,bouna,9.2667,-3.0,74.86,13,0,1.97,CI,1707706542
327,buka,40.8108,69.1986,41.95,79,19,5.93,UZ,1707706542
328,nieuw amsterdam,5.8833,-55.0833,80.76,82,37,10.42,SR,1707706542
329,saint-pierre,-21.3393,55.4781,76.68,78,0,6.91,RE,1707706542
330,noumea,-22.2763,166.4572,84.18,99,63,17.56,NC,1707706542
331,kish,26.5578,54.0194,64.67,82,100,9.22,IR,1707706542
332,egilsstadir,65.2653,-14.3948,33.71,93,100,21.85,IS,1707706542
333,zhalantun,48.0,122.7167,23.54,71,100,1.81,CN,1707706423
334,belmonte,-15.8631,-38.8828,77.43,88,12,4.97,BR,1707706543
335,chibougamau,49.9168,-74.3659,13.62,85,100,6.91,CA,1707706543
336,prineville,44.2999,-120.8345,45.12,68,0,0.0,US,1707706543
337,general pinedo,-27.3167,-61.2833,86.99,70,51,4.0,AR,1707706543
338,kayyerkan,69.3786,87.7439,-34.22,96,28,4.97,RU,1707706543
339,bubaque,11.2833,-15.8333,79.27,62,0,8.16,GW,1707706543
340,salinopolis,-0.6136,-47.3561,78.66,89,96,9.66,BR,1707706543
341,grande prairie,55.1667,-118.8027,26.78,74,75,4.61,CA,1707706364
342,basco,20.4487,121.9702,70.27,59,38,25.57,PH,1707706544
343,peterhead,57.5058,-1.7981,39.6,85,79,6.53,GB,1707706544
344,nadi,-17.8,177.4167,84.2,84,75,17.27,FJ,1707706544
345,boonville,38.9736,-92.7432,35.46,80,0,5.75,US,1707706544
346,puerto lempira,15.2667,-83.7667,78.44,82,0,20.78,HN,1707706544
347,kachug,53.9606,105.8817,15.04,76,100,5.01,RU,1707706544
348,palembang,-2.9167,104.7458,84.29,79,75,13.8,ID,1707706545
349,wanning,18.8003,110.3967,70.34,69,100,3.06,CN,1707706545
350,bintulu,3.1667,113.0333,82.81,83,40,2.3,MY,1707706545
351,castillos,-34.1667,-53.8333,74.35,94,0,6.08,UY,1707706545
352,banda aceh,5.5577,95.3222,83.8,67,3,16.02,ID,1707706545
353,kurchatov,51.6601,35.6521,32.41,100,100,8.79,RU,1707706545
354,luwuk,-0.9516,122.7875,80.94,86,98,1.43,ID,1707706545
355,khash,28.2211,61.2158,49.6,64,100,2.53,IR,1707706546
356,g'azalkent,41.5581,69.7708,41.38,60,47,7.05,UZ,1707706546
357,saipan,15.1355,145.701,88.5,55,40,14.97,MP,1707706546
358,bullhead city,35.1478,-114.5683,54.86,32,0,10.36,US,1707706492
359,yuzhno-kurilsk,44.0306,145.8556,22.37,80,93,16.89,RU,1707706546
360,gioia del colle,40.7967,16.9236,48.07,89,0,4.61,IT,1707706546
361,quellon,-43.1167,-73.6167,49.32,71,1,6.73,CL,1707706547
362,antsiranana,-12.2787,49.2917,76.1,92,100,10.54,MG,1707706547
363,champerico,14.3,-91.9167,77.86,70,2,4.97,GT,1707706547
364,tara,56.8944,74.371,-16.65,98,50,5.44,RU,1707706547
365,lusaka,-15.4067,28.2871,65.39,71,62,9.4,ZM,1707706547
366,ceres,37.5949,-120.9577,55.35,65,0,4.61,US,1707706547
367,aibak,36.2647,68.0155,48.15,38,100,2.8,AF,1707706547
368,caluula,11.9661,50.7569,76.06,75,19,9.01,SO,1707706548
369,kristiansund,63.1115,7.732,38.05,60,100,8.05,NO,1707706548
370,kalevala,65.2,31.1667,-3.91,100,15,4.0,RU,1707706548
371,kourou,5.1552,-52.6478,78.85,86,70,8.97,GF,1707706548
372,sarakhs,36.5449,61.1577,50.05,42,18,4.07,IR,1707706548
373,puerto colombia,10.9878,-74.9547,82.49,75,6,26.84,CO,1707706550
374,muleshoe,34.2265,-102.7238,28.04,95,80,5.95,US,1707706550
375,pandan,14.0453,124.1694,77.54,72,71,25.23,PH,1707706550
376,tshikapa,-6.4167,20.8,71.64,86,93,2.48,CD,1707706522
377,boyalik,41.2634,28.6314,58.78,11,100,20.15,TR,1707706550
378,salekhard,66.53,66.6019,-27.33,93,12,5.08,RU,1707706550
379,gamba,-2.65,10.0,78.08,89,100,4.27,GA,1707706550
380,gizo,-8.103,156.8419,82.94,78,56,12.91,SB,1707706551
381,saudarkrokur,65.7461,-19.6394,32.92,78,100,19.44,IS,1707706551
382,nogliki,51.8333,143.1667,10.51,81,100,8.41,RU,1707706551
383,madalena,41.2162,-8.3345,57.78,96,46,7.76,PT,1707706551
384,severnoye,56.3491,78.3619,-9.02,95,92,8.99,RU,1707706551
385,bolotnoye,55.6717,84.3981,2.16,94,100,11.3,RU,1707706552
386,daund,18.4667,74.6,74.86,28,68,4.09,IN,1707706552
387,al quwayrah,29.8004,35.3116,44.6,44,72,7.65,JO,1707706552
388,taltal,-25.4,-70.4833,68.92,83,62,2.66,CL,1707706552
389,baoro,5.6667,15.9667,71.1,26,100,4.23,CF,1707706552
390,kzyltu,53.6364,72.3414,-6.74,98,51,10.16,KZ,1707706552
391,mission,26.2159,-98.3253,69.22,42,0,1.01,US,1707706553
392,howard springs,-12.497,131.047,76.91,84,100,8.46,AU,1707706553
393,baley,51.6,116.6333,22.87,71,97,2.73,RU,1707706553
394,prince albert,53.2001,-105.7677,24.75,74,0,11.5,CA,1707706553
395,happy valley-goose bay,53.3168,-60.3315,32.31,100,75,4.61,CA,1707706553
396,achacachi,-16.05,-68.6833,46.35,88,100,8.95,BO,1707706553
397,talakan,50.3167,130.3667,24.46,76,100,11.68,RU,1707706553
398,tralee,52.2704,-9.7026,39.83,79,11,8.52,IE,1707706554
399,uvinza,-5.1036,30.3911,66.88,96,98,0.51,TZ,1707706554
400,embi,48.8264,58.1442,-8.57,90,16,5.73,KZ,1707706554
401,papao,-17.75,-149.55,80.28,82,100,7.29,PF,1707706554
402,yurga,55.7231,84.8861,3.0,93,100,11.48,RU,1707706554
403,uturoa,-16.7333,-151.4333,82.04,86,100,24.56,PF,1707706554
404,san juan,-31.5375,-68.5364,88.39,51,21,10.04,AR,1707706554
405,mendoza,-32.8908,-68.8272,81.93,65,20,2.3,AR,1707706362
406,muisne,0.6,-80.0333,78.33,88,93,3.15,EC,1707706555
407,along,28.1667,94.7667,63.91,37,2,0.58,IN,1707706555
408,vorkuta,67.5,64.0,-26.28,100,100,4.63,RU,1707706555
409,seeb,23.6703,58.1891,69.89,83,40,4.61,OM,1707706555
410,ajuy,11.1724,123.0197,79.16,79,60,23.11,PH,1707706555
411,tchollire,8.4022,14.1698,73.36,22,1,2.04,CM,1707706555
412,ust-nera,64.5667,143.2,-21.93,96,48,1.88,RU,1707706555
413,chabahar,25.2919,60.643,68.74,77,2,4.09,IR,1707706556
414,kefamenanu,-9.4467,124.4781,80.01,75,100,7.56,ID,1707706556
415,matthew town,20.95,-73.6667,76.1,71,1,18.57,BS,1707706556
416,colmenar de oreja,40.1068,-3.3855,42.28,94,100,9.13,ES,1707706556
417,nizhneangarsk,55.7833,109.55,5.0,82,15,8.01,RU,1707706556
418,guanare,9.0418,-69.7421,76.1,65,7,5.44,VE,1707706556
419,greenville,35.6127,-77.3663,61.14,95,100,8.05,US,1707706256
420,qamdo,31.1667,97.2333,21.25,36,5,4.41,CN,1707706556
421,san martin,-33.081,-68.4681,82.94,52,36,7.07,AR,1707706557
422,grand falls-windsor,48.9332,-55.6649,34.5,94,100,4.97,CA,1707706557
423,deder,9.3167,41.45,57.69,75,48,3.06,ET,1707706557
424,kailua-kona,19.6406,-155.9956,78.76,76,75,6.91,US,1707706402
425,kapa'a,22.0752,-159.319,79.12,70,75,8.05,US,1707706557
426,hadibu,12.65,54.0333,75.56,77,22,5.97,YE,1707706557
427,bezhetsk,57.7851,36.6965,20.32,96,98,6.82,RU,1707706557
428,dondo,-19.6094,34.7431,74.71,90,98,10.92,MZ,1707706557
429,beberibe,-4.1797,-38.1306,80.89,85,91,13.31,BR,1707706557
430,hit,33.6416,42.8251,56.91,57,4,8.01,IQ,1707706558
431,yegorlykskaya,46.5656,40.6562,49.6,71,100,7.16,RU,1707706558
432,knyaze-volkonskoye,48.4642,135.4567,23.34,90,100,11.99,RU,1707706558
433,la foa,-21.7108,165.8276,84.72,70,66,11.9,NC,1707706558
434,siwa oasis,29.2041,25.5195,58.82,25,90,7.74,EG,1707706558
435,malanje,-9.5402,16.341,65.16,96,97,1.5,AO,1707706558
436,novyy urengoy,66.0833,76.6333,-23.15,98,75,7.7,RU,1707706558
437,petropavlovka,50.6114,105.3196,22.69,87,98,4.16,RU,1707706558
438,selma,36.5708,-119.6121,55.45,71,0,3.44,US,1707706559
439,kolonia town,6.964,158.206,87.91,74,75,17.27,FM,1707706559
440,betio village,1.358,172.9211,89.64,77,95,9.35,KI,1707706559
441,peterborough,52.5736,-0.2478,39.27,93,75,9.22,GB,1707706274
442,bei'an,24.5399,109.533,64.08,46,1,5.5,CN,1707706559
443,kelso,46.1468,-122.9084,51.82,84,100,10.0,US,1707706559
444,murghob,38.1702,73.9667,-3.28,62,11,5.82,TJ,1707706559
445,chimbarongo,-34.7,-71.05,72.48,56,20,0.67,CL,1707706559
446,wangkui,46.8333,126.5,26.6,79,47,20.22,CN,1707706560
447,cho dok,10.7,105.1167,82.29,49,12,7.45,VN,1707706560
448,es castell,39.8795,4.2854,52.48,76,0,8.05,ES,1707706560
449,kidal,18.4411,1.4078,71.35,9,0,6.11,ML,1707706560
450,arraial do cabo,-22.9661,-42.0278,73.85,90,23,7.31,BR,1707706560
451,cobija,-11.0267,-68.7692,74.55,97,100,1.23,BO,1707706560
452,i-n-salah,27.1935,2.4607,64.89,33,0,9.08,DZ,1707706561
453,san clemente,33.427,-117.612,57.27,69,2,1.99,US,1707706561
454,adrar,20.5022,-10.0711,65.59,36,0,8.3,MR,1707706561
455,sona,45.4388,10.8255,47.48,93,75,4.61,IT,1707706561
456,krasavino,60.9614,46.4814,2.37,97,100,4.09,RU,1707706561
457,kerikeri,-35.2268,173.9474,72.39,53,22,9.8,NZ,1707706561
458,vangviang,18.9333,102.45,79.84,54,9,1.68,LA,1707706561
459,mansa,29.9833,75.3833,54.7,43,59,1.81,IN,1707706561
460,shahpur,16.7,76.8333,73.4,50,72,13.31,IN,1707706562
461,macau,22.2006,113.5461,69.6,52,0,8.05,MO,1707706562
462,lepsy,46.235,78.9456,18.21,74,100,7.78,KZ,1707706562
463,flying fish cove,-10.4217,105.6791,85.68,74,40,5.75,CX,1707706562
464,mar del plata,-38.0023,-57.5575,77.02,83,0,4.61,AR,1707706414
465,kulhudhuffushi,6.6221,73.07,81.39,69,6,6.6,MV,1707706563
466,east london,-33.0153,27.9116,65.88,81,69,10.11,ZA,1707706563
467,pambujan,12.5642,124.9276,78.55,78,83,28.83,PH,1707706563
468,usinsk,65.9939,57.5281,-29.92,100,96,5.01,RU,1707706563
469,hibbing,47.4272,-92.9377,26.42,63,100,0.0,US,1707706563
470,aba,5.1066,7.3667,80.4,83,7,3.22,NG,1707706343
471,tasek glugor,5.4803,100.4985,85.93,58,20,10.36,MY,1707706563
472,chebba,35.2372,11.115,50.94,64,0,9.89,TN,1707706564
473,pimentel,-6.8367,-79.9342,77.29,78,20,8.05,PE,1707706564
474,dzhambeyty,50.2536,52.595,3.96,83,96,9.62,KZ,1707706564
475,kharkhorin,47.1975,102.8238,32.07,57,99,13.89,MN,1707706564
476,altamira,-3.2033,-52.2064,73.35,99,100,2.44,BR,1707706564
477,coronel suarez,-37.4547,-61.9334,72.09,67,27,5.93,AR,1707706565
478,aras-asan,8.8908,126.3033,82.22,66,27,12.91,PH,1707706565
479,glen innes,-29.7333,151.7333,76.03,46,93,7.07,AU,1707706565
480,saint-francois,46.4154,3.9054,40.68,88,75,3.44,FR,1707706565
481,cururupu,-1.8283,-44.8683,75.92,96,48,3.2,BR,1707706565
482,najran,17.4924,44.1277,61.45,82,54,3.87,SA,1707706565
483,shenjiamen,29.9576,122.298,50.49,70,0,15.1,CN,1707706566
484,bangor,54.6534,-5.669,38.08,92,75,10.36,GB,1707706566
485,mermoz boabab,14.7065,-17.4758,72.16,76,0,10.98,SN,1707706566
486,leirvik,59.7798,5.5005,39.85,68,100,11.1,NO,1707706566
487,logan,41.7355,-111.8344,32.7,69,0,0.0,US,1707706532
488,hwange,-18.3693,26.5019,69.84,72,42,4.97,ZW,1707706566
489,weatherford,32.7593,-97.7972,40.21,90,100,5.99,US,1707706526
490,kirkwall,58.9848,-2.9587,41.97,93,75,2.3,GB,1707706566
491,remire-montjoly,4.9167,-52.2667,78.84,89,75,4.61,GF,1707706567
492,jayapura,-2.5333,140.7,88.99,71,98,6.38,ID,1707706567
493,jalingo,8.8833,11.3667,77.34,20,0,3.24,NG,1707706567
494,dakhla,23.6848,-15.958,65.34,83,0,17.54,EH,1707706567
495,kyelang,32.5833,77.0333,4.24,58,22,6.6,IN,1707706567
496,xifeng,42.7372,124.7222,37.17,57,0,20.2,CN,1707706567
497,mahajanga,-15.7167,46.3167,77.02,94,40,2.3,MG,1707706568
498,port augusta,-32.5,137.7667,102.83,14,0,7.65,AU,1707706568
499,watampone,-4.5386,120.3279,77.49,92,100,5.5,ID,1707706568
500,clarksville,36.5298,-87.3595,49.53,79,75,6.91,US,1707706337
501,borda da mata,-22.2742,-46.1653,64.24,96,30,4.88,BR,1707706568
502,kisangani,0.5167,25.2,72.0,84,77,2.37,CD,1707706568
503,moscow,55.7522,37.6156,23.43,97,100,6.46,RU,1707706309
504,sao filipe,14.8961,-24.4956,72.91,76,2,9.1,CV,1707706568
505,vorgashor,67.5833,63.95,-29.88,100,100,3.71,RU,1707706569
506,fort bragg,35.139,-79.006,61.83,94,40,0.0,US,1707706569
507,vecumnieki,56.6064,24.5222,31.69,96,100,8.34,LV,1707706569
508,okha,53.5739,142.9478,5.04,87,100,7.45,RU,1707706569
509,berdigestyakh,62.0989,126.6992,-10.52,95,100,6.26,RU,1707706569
510,bikenibeu village,1.3673,173.1241,89.56,70,75,9.22,KI,1707706569
511,nova sintra,14.8667,-24.7167,68.09,80,2,17.6,CV,1707706570
512,dryden,49.7833,-92.7503,17.89,93,75,2.3,CA,1707706570
513,morshansk,53.4435,41.8107,20.98,96,100,9.95,RU,1707706570
514,al ghayzah,16.2079,52.176,72.07,81,40,5.75,YE,1707706570
515,uribia,11.7139,-72.266,80.8,70,4,18.75,CO,1707706570
516,saint croix,17.7397,-64.7388,77.45,79,100,10.36,VI,1707706570
517,al burayqah,30.4062,19.5739,64.29,67,100,19.17,LY,1707706571
518,skeldon,5.8833,-57.1333,78.22,80,10,8.7,GY,1707706571
519,aqaba,29.5267,35.0078,53.46,62,77,2.3,JO,1707706571
520,jining,35.405,116.5814,54.12,48,0,13.98,CN,1707706571
521,paradip garh,20.3167,86.6167,73.06,49,22,5.32,IN,1707706571
522,touros,-5.1989,-35.4608,80.04,82,40,13.51,BR,1707706572
523,nar'yan-mar,67.6713,53.087,-27.89,100,27,4.0,RU,1707706572
524,charters towers,-20.1,146.2667,91.62,36,5,7.74,AU,1707706572
525,sechura,-5.5569,-80.8222,77.49,81,100,12.24,PE,1707706572
526,lauro de freitas,-12.8944,-38.3272,80.62,89,40,6.91,BR,1707706277
527,olinda,-8.0089,-34.8553,82.13,74,75,14.97,BR,1707706572
528,shingu,33.7333,135.9833,50.41,39,8,6.98,JP,1707706573
529,portland,45.5234,-122.6762,52.61,78,100,8.99,US,1707706340
530,zhumysker,49.3333,49.4,22.59,90,100,11.83,KZ,1707706573
531,nemuro,43.3236,145.575,27.79,63,29,13.8,JP,1707706573
532,milngavie,55.9407,-4.3231,40.95,90,75,12.66,GB,1707706573
533,vanju-mare,44.4253,22.8697,50.09,89,100,4.76,RO,1707706573
534,magadan,59.5667,150.8,-3.48,81,100,4.63,RU,1707706573
535,kenai,60.5544,-151.2583,33.89,84,100,20.71,US,1707706574
536,labuan bajo,-8.4964,119.8877,80.46,84,100,18.25,ID,1707706574
537,arno,60.1167,18.6333,19.78,92,100,12.35,SE,1707706574
538,la gomera,14.0833,-91.05,73.45,78,7,3.58,GT,1707706574
539,antonio enes,-16.2325,39.9086,74.97,99,71,4.43,MZ,1707706574
540,bardai,11.65,7.2333,68.77,17,66,8.48,NG,1707706574
541,tougue,11.4667,-11.6,69.69,17,0,1.41,GN,1707706575
542,sorsk,54.0033,90.2467,1.29,77,100,8.52,RU,1707706575
543,al marj,32.488,20.8317,54.07,77,100,6.22,LY,1707706575
544,pugachev,52.0133,48.8025,5.47,88,100,8.68,RU,1707706575
545,kryvyi rih,47.9167,33.35,48.78,83,100,13.96,UA,1707706575
546,prado,-17.3411,-39.2208,76.41,91,12,2.59,BR,1707706575
547,dawson creek,55.7666,-120.2362,24.44,80,0,3.44,CA,1707706576
548,riverton,40.5219,-111.9391,32.49,70,0,11.01,US,1707706573
549,zhob,31.3411,69.4481,48.92,33,100,1.3,PK,1707706576
550,karratha,-20.7377,116.8463,97.14,35,0,9.84,AU,1707706576
551,monitos,8.25,-76.05,78.26,91,66,5.68,CO,1707706576
552,santa terezinha,-29.9002,-50.0904,76.33,91,80,8.57,BR,1707706576
553,brokopondo,4.75,-55.1667,77.97,77,11,11.74,SR,1707706577
